[
    {
        "name": "",
        "tooltipName": "Andorra",
        "lat": 42.546245,
        "lon": 1.601554
    },
    {
        "name": "",
        "tooltipName": "United Arab Emirates",
        "lat": 23.424076,
        "lon": 53.847818
    },
    {
        "name": "",
        "tooltipName": "Afghanistan",
        "lat": 33.93911,
        "lon": 67.709953
    },
    {
        "name": "",
        "tooltipName": "Antigua and Barbuda",
        "lat": 17.060816,
        "lon": -61.796428
    },
    {
        "name": "",
        "tooltipName": "Anguilla",
        "lat": 18.220554,
        "lon": -63.068615
    },
    {
        "name": "",
        "tooltipName": "Albania",
        "lat": 41.153332,
        "lon": 20.168331
    },
    {
        "name": "",
        "tooltipName": "Armenia",
        "lat": 40.069099,
        "lon": 45.038189
    },
    {
        "name": "",
        "tooltipName": "Netherlands Antilles",
        "lat": 12.226079,
        "lon": -69.060087
    },
    {
        "name": "",
        "tooltipName": "Angola",
        "lat": -11.202692,
        "lon": 17.873887
    },
    {
        "name": "",
        "tooltipName": "Antarctica",
        "lat": -75.250973,
        "lon": -0.071389
    },
    {
        "name": "",
        "tooltipName": "Argentina",
        "lat": -38.416097,
        "lon": -63.616672
    },
    {
        "name": "",
        "tooltipName": "American Samoa",
        "lat": -14.270972,
        "lon": -170.132217
    },
    {
        "name": "",
        "tooltipName": "Austria",
        "lat": 47.516231,
        "lon": 14.550072
    },
    {
        "name": "",
        "tooltipName": "Australia",
        "lat": -25.274398,
        "lon": 133.775136
    },
    {
        "name": "",
        "tooltipName": "Aruba",
        "lat": 12.52111,
        "lon": -69.968338
    },
    {
        "name": "",
        "tooltipName": "Azerbaijan",
        "lat": 40.143105,
        "lon": 47.576927
    },
    {
        "name": "",
        "tooltipName": "Bosnia and Herzegovina",
        "lat": 43.915886,
        "lon": 17.679076
    },
    {
        "name": "",
        "tooltipName": "Barbados",
        "lat": 13.193887,
        "lon": -59.543198
    },
    {
        "name": "",
        "tooltipName": "Bangladesh",
        "lat": 23.684994,
        "lon": 90.356331
    },
    {
        "name": "",
        "tooltipName": "Belgium",
        "lat": 50.503887,
        "lon": 4.469936
    },
    {
        "name": "",
        "tooltipName": "Burkina Faso",
        "lat": 12.238333,
        "lon": -1.561593
    },
    {
        "name": "",
        "tooltipName": "Bulgaria",
        "lat": 42.733883,
        "lon": 25.48583
    },
    {
        "name": "",
        "tooltipName": "Bahrain",
        "lat": 25.930414,
        "lon": 50.637772
    },
    {
        "name": "",
        "tooltipName": "Burundi",
        "lat": -3.373056,
        "lon": 29.918886
    },
    {
        "name": "",
        "tooltipName": "Benin",
        "lat": 9.30769,
        "lon": 2.315834
    },
    {
        "name": "",
        "tooltipName": "Bermuda",
        "lat": 32.321384,
        "lon": -64.75737
    },
    {
        "name": "",
        "tooltipName": "Brunei",
        "lat": 4.535277,
        "lon": 114.727669
    },
    {
        "name": "",
        "tooltipName": "Bolivia",
        "lat": -16.290154,
        "lon": -63.588653
    },
    {
        "name": "",
        "tooltipName": "Brazil",
        "lat": -14.235004,
        "lon": -51.92528
    },
    {
        "name": "",
        "tooltipName": "Bahamas",
        "lat": 25.03428,
        "lon": -77.39628
    },
    {
        "name": "",
        "tooltipName": "Bhutan",
        "lat": 27.514162,
        "lon": 90.433601
    },
    {
        "name": "",
        "tooltipName": "Bouvet Island",
        "lat": -54.423199,
        "lon": 3.413194
    },
    {
        "name": "",
        "tooltipName": "Botswana",
        "lat": -22.328474,
        "lon": 24.684866
    },
    {
        "name": "",
        "tooltipName": "Belarus",
        "lat": 53.709807,
        "lon": 27.953389
    },
    {
        "name": "",
        "tooltipName": "Belize",
        "lat": 17.189877,
        "lon": -88.49765
    },
    {
        "name": "",
        "tooltipName": "Canada",
        "lat": 56.130366,
        "lon": -106.346771
    },
    {
        "name": "",
        "tooltipName": "Cocos [Keeling] Islands",
        "lat": -12.164165,
        "lon": 96.870956
    },
    {
        "name": "",
        "tooltipName": "Congo [DRC]",
        "lat": -4.038333,
        "lon": 21.758664
    },
    {
        "name": "",
        "tooltipName": "Central African Republic",
        "lat": 6.611111,
        "lon": 20.939444
    },
    {
        "name": "",
        "tooltipName": "Congo [Republic]",
        "lat": -0.228021,
        "lon": 15.827659
    },
    {
        "name": "",
        "tooltipName": "Switzerland",
        "lat": 46.818188,
        "lon": 8.227512
    },
    {
        "name": "",
        "tooltipName": "C\u00f4te d'Ivoire",
        "lat": 7.539989,
        "lon": -5.54708
    },
    {
        "name": "",
        "tooltipName": "Cook Islands",
        "lat": -21.236736,
        "lon": -159.777671
    },
    {
        "name": "",
        "tooltipName": "Chile",
        "lat": -35.675147,
        "lon": -71.542969
    },
    {
        "name": "",
        "tooltipName": "Cameroon",
        "lat": 7.369722,
        "lon": 12.354722
    },
    {
        "name": "",
        "tooltipName": "China",
        "lat": 35.86166,
        "lon": 104.195397
    },
    {
        "name": "",
        "tooltipName": "Colombia",
        "lat": 4.570868,
        "lon": -74.297333
    },
    {
        "name": "",
        "tooltipName": "Costa Rica",
        "lat": 9.748917,
        "lon": -83.753428
    },
    {
        "name": "",
        "tooltipName": "Cuba",
        "lat": 21.521757,
        "lon": -77.781167
    },
    {
        "name": "",
        "tooltipName": "Cape Verde",
        "lat": 16.002082,
        "lon": -24.013197
    },
    {
        "name": "",
        "tooltipName": "Christmas Island",
        "lat": -10.447525,
        "lon": 105.690449
    },
    {
        "name": "",
        "tooltipName": "Cyprus",
        "lat": 35.126413,
        "lon": 33.429859
    },
    {
        "name": "",
        "tooltipName": "Czech Republic",
        "lat": 49.817492,
        "lon": 15.472962
    },
    {
        "name": "",
        "tooltipName": "Germany",
        "lat": 51.165691,
        "lon": 10.451526
    },
    {
        "name": "",
        "tooltipName": "Djibouti",
        "lat": 11.825138,
        "lon": 42.590275
    },
    {
        "name": "",
        "tooltipName": "Denmark",
        "lat": 56.26392,
        "lon": 9.501785
    },
    {
        "name": "",
        "tooltipName": "Dominica",
        "lat": 15.414999,
        "lon": -61.370976
    },
    {
        "name": "",
        "tooltipName": "Dominican Republic",
        "lat": 18.735693,
        "lon": -70.162651
    },
    {
        "name": "",
        "tooltipName": "Algeria",
        "lat": 28.033886,
        "lon": 1.659626
    },
    {
        "name": "",
        "tooltipName": "Ecuador",
        "lat": -1.831239,
        "lon": -78.183406
    },
    {
        "name": "",
        "tooltipName": "Estonia",
        "lat": 58.595272,
        "lon": 25.013607
    },
    {
        "name": "",
        "tooltipName": "Egypt",
        "lat": 26.820553,
        "lon": 30.802498
    },
    {
        "name": "",
        "tooltipName": "Western Sahara",
        "lat": 24.215527,
        "lon": -12.885834
    },
    {
        "name": "",
        "tooltipName": "Eritrea",
        "lat": 15.179384,
        "lon": 39.782334
    },
    {
        "name": "",
        "tooltipName": "Spain",
        "lat": 40.463667,
        "lon": -3.74922
    },
    {
        "name": "",
        "tooltipName": "Ethiopia",
        "lat": 9.145,
        "lon": 40.489673
    },
    {
        "name": "",
        "tooltipName": "Finland",
        "lat": 61.92411,
        "lon": 25.748151
    },
    {
        "name": "",
        "tooltipName": "Fiji",
        "lat": -16.578193,
        "lon": 179.414413
    },
    {
        "name": "",
        "tooltipName": "Falkland Islands [Islas Malvinas]",
        "lat": -51.796253,
        "lon": -59.523613
    },
    {
        "name": "",
        "tooltipName": "Micronesia",
        "lat": 7.425554,
        "lon": 150.550812
    },
    {
        "name": "",
        "tooltipName": "Faroe Islands",
        "lat": 61.892635,
        "lon": -6.911806
    },
    {
        "name": "",
        "tooltipName": "France",
        "lat": 46.227638,
        "lon": 2.213749
    },
    {
        "name": "",
        "tooltipName": "Gabon",
        "lat": -0.803689,
        "lon": 11.609444
    },
    {
        "name": "",
        "tooltipName": "United Kingdom",
        "lat": 55.378051,
        "lon": -3.435973
    },
    {
        "name": "",
        "tooltipName": "Grenada",
        "lat": 12.262776,
        "lon": -61.604171
    },
    {
        "name": "",
        "tooltipName": "Georgia",
        "lat": 42.315407,
        "lon": 43.356892
    },
    {
        "name": "",
        "tooltipName": "French Guiana",
        "lat": 3.933889,
        "lon": -53.125782
    },
    {
        "name": "",
        "tooltipName": "Guernsey",
        "lat": 49.465691,
        "lon": -2.585278
    },
    {
        "name": "",
        "tooltipName": "Ghana",
        "lat": 7.946527,
        "lon": -1.023194
    },
    {
        "name": "",
        "tooltipName": "Gibraltar",
        "lat": 36.137741,
        "lon": -5.345374
    },
    {
        "name": "",
        "tooltipName": "Greenland",
        "lat": 71.706936,
        "lon": -42.604303
    },
    {
        "name": "",
        "tooltipName": "Gambia",
        "lat": 13.443182,
        "lon": -15.310139
    },
    {
        "name": "",
        "tooltipName": "Guinea",
        "lat": 9.945587,
        "lon": -9.696645
    },
    {
        "name": "",
        "tooltipName": "Guadeloupe",
        "lat": 16.995971,
        "lon": -62.067641
    },
    {
        "name": "",
        "tooltipName": "Equatorial Guinea",
        "lat": 1.650801,
        "lon": 10.267895
    },
    {
        "name": "",
        "tooltipName": "Greece",
        "lat": 39.074208,
        "lon": 21.824312
    },
    {
        "name": "",
        "tooltipName": "South Georgia and the South Sandwich Islands",
        "lat": -54.429579,
        "lon": -36.587909
    },
    {
        "name": "",
        "tooltipName": "Guatemala",
        "lat": 15.783471,
        "lon": -90.230759
    },
    {
        "name": "",
        "tooltipName": "Guam",
        "lat": 13.444304,
        "lon": 144.793731
    },
    {
        "name": "",
        "tooltipName": "Guinea-Bissau",
        "lat": 11.803749,
        "lon": -15.180413
    },
    {
        "name": "",
        "tooltipName": "Guyana",
        "lat": 4.860416,
        "lon": -58.93018
    },
    {
        "name": "",
        "tooltipName": "Gaza Strip",
        "lat": 31.354676,
        "lon": 34.308825
    },
    {
        "name": "",
        "tooltipName": "Hong Kong",
        "lat": 22.396428,
        "lon": 114.109497
    },
    {
        "name": "",
        "tooltipName": "Heard Island and McDonald Islands",
        "lat": -53.08181,
        "lon": 73.504158
    },
    {
        "name": "",
        "tooltipName": "Honduras",
        "lat": 15.199999,
        "lon": -86.241905
    },
    {
        "name": "",
        "tooltipName": "Croatia",
        "lat": 45.1,
        "lon": 15.2
    },
    {
        "name": "",
        "tooltipName": "Haiti",
        "lat": 18.971187,
        "lon": -72.285215
    },
    {
        "name": "",
        "tooltipName": "Hungary",
        "lat": 47.162494,
        "lon": 19.503304
    },
    {
        "name": "",
        "tooltipName": "Indonesia",
        "lat": -0.789275,
        "lon": 113.921327
    },
    {
        "name": "",
        "tooltipName": "Ireland",
        "lat": 53.41291,
        "lon": -8.24389
    },
    {
        "name": "",
        "tooltipName": "Israel",
        "lat": 31.046051,
        "lon": 34.851612
    },
    {
        "name": "",
        "tooltipName": "Isle of Man",
        "lat": 54.236107,
        "lon": -4.548056
    },
    {
        "name": "",
        "tooltipName": "India",
        "lat": 20.593684,
        "lon": 78.96288
    },
    {
        "name": "",
        "tooltipName": "British Indian Ocean Territory",
        "lat": -6.343194,
        "lon": 71.876519
    },
    {
        "name": "",
        "tooltipName": "Iraq",
        "lat": 33.223191,
        "lon": 43.679291
    },
    {
        "name": "",
        "tooltipName": "Iran",
        "lat": 32.427908,
        "lon": 53.688046
    },
    {
        "name": "",
        "tooltipName": "Iceland",
        "lat": 64.963051,
        "lon": -19.020835
    },
    {
        "name": "",
        "tooltipName": "Italy",
        "lat": 41.87194,
        "lon": 12.56738
    },
    {
        "name": "",
        "tooltipName": "Jersey",
        "lat": 49.214439,
        "lon": -2.13125
    },
    {
        "name": "",
        "tooltipName": "Jamaica",
        "lat": 18.109581,
        "lon": -77.297508
    },
    {
        "name": "",
        "tooltipName": "Jordan",
        "lat": 30.585164,
        "lon": 36.238414
    },
    {
        "name": "",
        "tooltipName": "Japan",
        "lat": 36.204824,
        "lon": 138.252924
    },
    {
        "name": "",
        "tooltipName": "Kenya",
        "lat": -0.023559,
        "lon": 37.906193
    },
    {
        "name": "",
        "tooltipName": "Kyrgyzstan",
        "lat": 41.20438,
        "lon": 74.766098
    },
    {
        "name": "",
        "tooltipName": "Cambodia",
        "lat": 12.565679,
        "lon": 104.990963
    },
    {
        "name": "",
        "tooltipName": "Kiribati",
        "lat": -3.370417,
        "lon": -168.734039
    },
    {
        "name": "",
        "tooltipName": "Comoros",
        "lat": -11.875001,
        "lon": 43.872219
    },
    {
        "name": "",
        "tooltipName": "Saint Kitts and Nevis",
        "lat": 17.357822,
        "lon": -62.782998
    },
    {
        "name": "",
        "tooltipName": "North Korea",
        "lat": 40.339852,
        "lon": 127.510093
    },
    {
        "name": "",
        "tooltipName": "South Korea",
        "lat": 35.907757,
        "lon": 127.766922
    },
    {
        "name": "",
        "tooltipName": "Kuwait",
        "lat": 29.31166,
        "lon": 47.481766
    },
    {
        "name": "",
        "tooltipName": "Cayman Islands",
        "lat": 19.513469,
        "lon": -80.566956
    },
    {
        "name": "",
        "tooltipName": "Kazakhstan",
        "lat": 48.019573,
        "lon": 66.923684
    },
    {
        "name": "",
        "tooltipName": "Laos",
        "lat": 19.85627,
        "lon": 102.495496
    },
    {
        "name": "",
        "tooltipName": "Lebanon",
        "lat": 33.854721,
        "lon": 35.862285
    },
    {
        "name": "",
        "tooltipName": "Saint Lucia",
        "lat": 13.909444,
        "lon": -60.978893
    },
    {
        "name": "",
        "tooltipName": "Liechtenstein",
        "lat": 47.166,
        "lon": 9.555373
    },
    {
        "name": "",
        "tooltipName": "Sri Lanka",
        "lat": 7.873054,
        "lon": 80.771797
    },
    {
        "name": "",
        "tooltipName": "Liberia",
        "lat": 6.428055,
        "lon": -9.429499
    },
    {
        "name": "",
        "tooltipName": "Lesotho",
        "lat": -29.609988,
        "lon": 28.233608
    },
    {
        "name": "",
        "tooltipName": "Lithuania",
        "lat": 55.169438,
        "lon": 23.881275
    },
    {
        "name": "",
        "tooltipName": "Luxembourg",
        "lat": 49.815273,
        "lon": 6.129583
    },
    {
        "name": "",
        "tooltipName": "Latvia",
        "lat": 56.879635,
        "lon": 24.603189
    },
    {
        "name": "",
        "tooltipName": "Libya",
        "lat": 26.3351,
        "lon": 17.228331
    },
    {
        "name": "",
        "tooltipName": "Morocco",
        "lat": 31.791702,
        "lon": -7.09262
    },
    {
        "name": "",
        "tooltipName": "Monaco",
        "lat": 43.750298,
        "lon": 7.412841
    },
    {
        "name": "",
        "tooltipName": "Moldova",
        "lat": 47.411631,
        "lon": 28.369885
    },
    {
        "name": "",
        "tooltipName": "Montenegro",
        "lat": 42.708678,
        "lon": 19.37439
    },
    {
        "name": "",
        "tooltipName": "Madagascar",
        "lat": -18.766947,
        "lon": 46.869107
    },
    {
        "name": "",
        "tooltipName": "Marshall Islands",
        "lat": 7.131474,
        "lon": 171.184478
    },
    {
        "name": "",
        "tooltipName": "Macedonia [FYROM]",
        "lat": 41.608635,
        "lon": 21.745275
    },
    {
        "name": "",
        "tooltipName": "Mali",
        "lat": 17.570692,
        "lon": -3.996166
    },
    {
        "name": "",
        "tooltipName": "Myanmar [Burma]",
        "lat": 21.913965,
        "lon": 95.956223
    },
    {
        "name": "",
        "tooltipName": "Mongolia",
        "lat": 46.862496,
        "lon": 103.846656
    },
    {
        "name": "",
        "tooltipName": "Macau",
        "lat": 22.198745,
        "lon": 113.543873
    },
    {
        "name": "",
        "tooltipName": "Northern Mariana Islands",
        "lat": 17.33083,
        "lon": 145.38469
    },
    {
        "name": "",
        "tooltipName": "Martinique",
        "lat": 14.641528,
        "lon": -61.024174
    },
    {
        "name": "",
        "tooltipName": "Mauritania",
        "lat": 21.00789,
        "lon": -10.940835
    },
    {
        "name": "",
        "tooltipName": "Montserrat",
        "lat": 16.742498,
        "lon": -62.187366
    },
    {
        "name": "",
        "tooltipName": "Malta",
        "lat": 35.937496,
        "lon": 14.375416
    },
    {
        "name": "",
        "tooltipName": "Mauritius",
        "lat": -20.348404,
        "lon": 57.552152
    },
    {
        "name": "",
        "tooltipName": "Maldives",
        "lat": 3.202778,
        "lon": 73.22068
    },
    {
        "name": "",
        "tooltipName": "Malawi",
        "lat": -13.254308,
        "lon": 34.301525
    },
    {
        "name": "",
        "tooltipName": "Mexico",
        "lat": 23.634501,
        "lon": -102.552784
    },
    {
        "name": "",
        "tooltipName": "Malaysia",
        "lat": 4.210484,
        "lon": 101.975766
    },
    {
        "name": "",
        "tooltipName": "Mozambique",
        "lat": -18.665695,
        "lon": 35.529562
    },
    {
        "name": "",
        "tooltipName": "Namibia",
        "lat": -22.95764,
        "lon": 18.49041
    },
    {
        "name": "",
        "tooltipName": "New Caledonia",
        "lat": -20.904305,
        "lon": 165.618042
    },
    {
        "name": "",
        "tooltipName": "Niger",
        "lat": 17.607789,
        "lon": 8.081666
    },
    {
        "name": "",
        "tooltipName": "Norfolk Island",
        "lat": -29.040835,
        "lon": 167.954712
    },
    {
        "name": "",
        "tooltipName": "Nigeria",
        "lat": 9.081999,
        "lon": 8.675277
    },
    {
        "name": "",
        "tooltipName": "Nicaragua",
        "lat": 12.865416,
        "lon": -85.207229
    },
    {
        "name": "",
        "tooltipName": "Netherlands",
        "lat": 52.132633,
        "lon": 5.291266
    },
    {
        "name": "",
        "tooltipName": "Norway",
        "lat": 60.472024,
        "lon": 8.468946
    },
    {
        "name": "",
        "tooltipName": "Nepal",
        "lat": 28.394857,
        "lon": 84.124008
    },
    {
        "name": "",
        "tooltipName": "Nauru",
        "lat": -0.522778,
        "lon": 166.931503
    },
    {
        "name": "",
        "tooltipName": "Niue",
        "lat": -19.054445,
        "lon": -169.867233
    },
    {
        "name": "",
        "tooltipName": "New Zealand",
        "lat": -40.900557,
        "lon": 174.885971
    },
    {
        "name": "",
        "tooltipName": "Oman",
        "lat": 21.512583,
        "lon": 55.923255
    },
    {
        "name": "",
        "tooltipName": "Panama",
        "lat": 8.537981,
        "lon": -80.782127
    },
    {
        "name": "",
        "tooltipName": "Peru",
        "lat": -9.189967,
        "lon": -75.015152
    },
    {
        "name": "",
        "tooltipName": "French Polynesia",
        "lat": -17.679742,
        "lon": -149.406843
    },
    {
        "name": "",
        "tooltipName": "Papua New Guinea",
        "lat": -6.314993,
        "lon": 143.95555
    },
    {
        "name": "",
        "tooltipName": "Philippines",
        "lat": 12.879721,
        "lon": 121.774017
    },
    {
        "name": "",
        "tooltipName": "Pakistan",
        "lat": 30.375321,
        "lon": 69.345116
    },
    {
        "name": "",
        "tooltipName": "Poland",
        "lat": 51.919438,
        "lon": 19.145136
    },
    {
        "name": "",
        "tooltipName": "Saint Pierre and Miquelon",
        "lat": 46.941936,
        "lon": -56.27111
    },
    {
        "name": "",
        "tooltipName": "Pitcairn Islands",
        "lat": -24.703615,
        "lon": -127.439308
    },
    {
        "name": "",
        "tooltipName": "Puerto Rico",
        "lat": 18.220833,
        "lon": -66.590149
    },
    {
        "name": "",
        "tooltipName": "Palestinian Territories",
        "lat": 31.952162,
        "lon": 35.233154
    },
    {
        "name": "",
        "tooltipName": "Portugal",
        "lat": 39.399872,
        "lon": -8.224454
    },
    {
        "name": "",
        "tooltipName": "Palau",
        "lat": 7.51498,
        "lon": 134.58252
    },
    {
        "name": "",
        "tooltipName": "Paraguay",
        "lat": -23.442503,
        "lon": -58.443832
    },
    {
        "name": "",
        "tooltipName": "Qatar",
        "lat": 25.354826,
        "lon": 51.183884
    },
    {
        "name": "",
        "tooltipName": "R\u00e9union",
        "lat": -21.115141,
        "lon": 55.536384
    },
    {
        "name": "",
        "tooltipName": "Romania",
        "lat": 45.943161,
        "lon": 24.96676
    },
    {
        "name": "",
        "tooltipName": "Serbia",
        "lat": 44.016521,
        "lon": 21.005859
    },
    {
        "name": "",
        "tooltipName": "Russia",
        "lat": 61.52401,
        "lon": 105.318756
    },
    {
        "name": "",
        "tooltipName": "Rwanda",
        "lat": -1.940278,
        "lon": 29.873888
    },
    {
        "name": "",
        "tooltipName": "Saudi Arabia",
        "lat": 23.885942,
        "lon": 45.079162
    },
    {
        "name": "",
        "tooltipName": "Solomon Islands",
        "lat": -9.64571,
        "lon": 160.156194
    },
    {
        "name": "",
        "tooltipName": "Seychelles",
        "lat": -4.679574,
        "lon": 55.491977
    },
    {
        "name": "",
        "tooltipName": "Sudan",
        "lat": 12.862807,
        "lon": 30.217636
    },
    {
        "name": "",
        "tooltipName": "Sweden",
        "lat": 60.128161,
        "lon": 18.643501
    },
    {
        "name": "",
        "tooltipName": "Singapore",
        "lat": 1.352083,
        "lon": 103.819836
    },
    {
        "name": "",
        "tooltipName": "Saint Helena",
        "lat": -24.143474,
        "lon": -10.030696
    },
    {
        "name": "",
        "tooltipName": "Slovenia",
        "lat": 46.151241,
        "lon": 14.995463
    },
    {
        "name": "",
        "tooltipName": "Svalbard and Jan Mayen",
        "lat": 77.553604,
        "lon": 23.670272
    },
    {
        "name": "",
        "tooltipName": "Slovakia",
        "lat": 48.669026,
        "lon": 19.699024
    },
    {
        "name": "",
        "tooltipName": "Sierra Leone",
        "lat": 8.460555,
        "lon": -11.779889
    },
    {
        "name": "",
        "tooltipName": "San Marino",
        "lat": 43.94236,
        "lon": 12.457777
    },
    {
        "name": "",
        "tooltipName": "Senegal",
        "lat": 14.497401,
        "lon": -14.452362
    },
    {
        "name": "",
        "tooltipName": "Somalia",
        "lat": 5.152149,
        "lon": 46.199616
    },
    {
        "name": "",
        "tooltipName": "Suriname",
        "lat": 3.919305,
        "lon": -56.027783
    },
    {
        "name": "",
        "tooltipName": "S\u00e3o Tom\u00e9 and Pr\u00edncipe",
        "lat": 0.18636,
        "lon": 6.613081
    },
    {
        "name": "",
        "tooltipName": "El Salvador",
        "lat": 13.794185,
        "lon": -88.89653
    },
    {
        "name": "",
        "tooltipName": "Syria",
        "lat": 34.802075,
        "lon": 38.996815
    },
    {
        "name": "",
        "tooltipName": "Swaziland",
        "lat": -26.522503,
        "lon": 31.465866
    },
    {
        "name": "",
        "tooltipName": "Turks and Caicos Islands",
        "lat": 21.694025,
        "lon": -71.797928
    },
    {
        "name": "",
        "tooltipName": "Chad",
        "lat": 15.454166,
        "lon": 18.732207
    },
    {
        "name": "",
        "tooltipName": "French Southern Territories",
        "lat": -49.280366,
        "lon": 69.348557
    },
    {
        "name": "",
        "tooltipName": "Togo",
        "lat": 8.619543,
        "lon": 0.824782
    },
    {
        "name": "",
        "tooltipName": "Thailand",
        "lat": 15.870032,
        "lon": 100.992541
    },
    {
        "name": "",
        "tooltipName": "Tajikistan",
        "lat": 38.861034,
        "lon": 71.276093
    },
    {
        "name": "",
        "tooltipName": "Tokelau",
        "lat": -8.967363,
        "lon": -171.855881
    },
    {
        "name": "",
        "tooltipName": "Timor-Leste",
        "lat": -8.874217,
        "lon": 125.727539
    },
    {
        "name": "",
        "tooltipName": "Turkmenistan",
        "lat": 38.969719,
        "lon": 59.556278
    },
    {
        "name": "",
        "tooltipName": "Tunisia",
        "lat": 33.886917,
        "lon": 9.537499
    },
    {
        "name": "",
        "tooltipName": "Tonga",
        "lat": -21.178986,
        "lon": -175.198242
    },
    {
        "name": "",
        "tooltipName": "Turkey",
        "lat": 38.963745,
        "lon": 35.243322
    },
    {
        "name": "",
        "tooltipName": "Trinidad and Tobago",
        "lat": 10.691803,
        "lon": -61.222503
    },
    {
        "name": "",
        "tooltipName": "Tuvalu",
        "lat": -7.109535,
        "lon": 177.64933
    },
    {
        "name": "",
        "tooltipName": "Taiwan",
        "lat": 23.69781,
        "lon": 120.960515
    },
    {
        "name": "",
        "tooltipName": "Tanzania",
        "lat": -6.369028,
        "lon": 34.888822
    },
    {
        "name": "",
        "tooltipName": "Ukraine",
        "lat": 48.379433,
        "lon": 31.16558
    },
    {
        "name": "",
        "tooltipName": "Uganda",
        "lat": 1.373333,
        "lon": 32.290275
    },
    {
        "name": "",
        "tooltipName": "United States of America",
        "lat": 37.09024,
        "lon": -95.712891
    },
    {
        "name": "",
        "tooltipName": "Uruguay",
        "lat": -32.522779,
        "lon": -55.765835
    },
    {
        "name": "",
        "tooltipName": "Uzbekistan",
        "lat": 41.377491,
        "lon": 64.585262
    },
    {
        "name": "",
        "tooltipName": "Vatican City",
        "lat": 41.902916,
        "lon": 12.453389
    },
    {
        "name": "",
        "tooltipName": "Saint Vincent and the Grenadines",
        "lat": 12.984305,
        "lon": -61.287228
    },
    {
        "name": "",
        "tooltipName": "Venezuela",
        "lat": 6.42375,
        "lon": -66.58973
    },
    {
        "name": "",
        "tooltipName": "British Virgin Islands",
        "lat": 18.420695,
        "lon": -64.639968
    },
    {
        "name": "",
        "tooltipName": "U.S. Virgin Islands",
        "lat": 18.335765,
        "lon": -64.896335
    },
    {
        "name": "",
        "tooltipName": "Vietnam",
        "lat": 14.058324,
        "lon": 108.277199
    },
    {
        "name": "",
        "tooltipName": "Vanuatu",
        "lat": -15.376706,
        "lon": 166.959158
    },
    {
        "name": "",
        "tooltipName": "Wallis and Futuna",
        "lat": -13.768752,
        "lon": -177.156097
    },
    {
        "name": "",
        "tooltipName": "Samoa",
        "lat": -13.759029,
        "lon": -172.104629
    },
    {
        "name": "",
        "tooltipName": "Kosovo",
        "lat": 42.602636,
        "lon": 20.902977
    },
    {
        "name": "",
        "tooltipName": "Yemen",
        "lat": 15.552727,
        "lon": 48.516388
    },
    {
        "name": "",
        "tooltipName": "Mayotte",
        "lat": -12.8275,
        "lon": 45.166244
    },
    {
        "name": "",
        "tooltipName": "South Africa",
        "lat": -30.559482,
        "lon": 22.937506
    },
    {
        "name": "",
        "tooltipName": "Zambia",
        "lat": -13.133897,
        "lon": 27.849332
    },
    {
        "name": "",
        "tooltipName": "Zimbabwe",
        "lat": -19.015438,
        "lon": 29.154857
    }
]